[{"name":"Hiệu thuốc Cầu Giấy Pharmacy","address":"157, Cầu Giấy, Phường Quan Hoa, Quận Cầu Giấy, Hà Nội","short_description":"Hiệu thuốc Cầu Giấy Pharmacy","lat":21.0322974,"lng":105.7987849},{"name":"Phòng khám tư nhân Răng - Hàm - Mặt","address":"157, Cầu Giấy, Phường Quan Hoa, Quận Cầu Giấy, Hà Nội","short_description":"Phòng khám tư nhân Răng - Hàm - Mặt","lat":21.0323086,"lng":105.7987455},{"name":"Nhà thuốc Hapharco","address":"157, Cầu Giấy, Phường Quan Hoa, Quận Cầu Giấy, Hà Nội","short_description":"Nhà thuốc Hapharco","lat":21.032766,"lng":105.798505},{"name":"Nha Khoa Hà Thành","address":"3 Dương Quảng Hàm, phường\nQuan Hoa, Quận\nCầu Giấy,\nHà Nội","short_description":"Nha Khoa Hà Thành","lat":21.0331886,"lng":105.7982721},{"name":"Trạm y tế phường Quan Hoa","address":"26 ngõ 165, Cầu Giấy, Quận Cầu Giấy, Hà Nội","short_description":"Trạm y tế phường Quan Hoa","lat":21.0321933,"lng":105.7973862},{"name":"Nhà thuốc tư nhân Minh Tâm","address":"27, Dương Quảng Hàm, Quận Cầu Giấy, Hà Nội","short_description":"Nhà thuốc tư nhân Minh Tâm","lat":21.033788,"lng":105.798946},{"name":"Nhà thuốc tư nhân","address":"48B, Cầu Giấy, Phường Quan Hoa, Quận Cầu Giấy, Hà Nội","short_description":"Nhà thuốc tư nhân","lat":21.0308234,"lng":105.8008814},{"name":"Nhà thuốc Minh Ánh","address":"52, Dương Quảng Hàm, Quận Cầu Giấy, Hà Nội","short_description":"Nhà thuốc Minh Ánh","lat":21.034123,"lng":105.79928},{"name":"Nhà Thuốc Ngọc Cầm","address":"48 Cầu Giấy, phường\nQuan Hoa, Quận\nCầu Giấy,\nHà Nội","short_description":"Nhà Thuốc Ngọc Cầm","lat":21.030484,"lng":105.800967},{"name":"Thẩm mỹ viện Xuân Thu","address":"3 Đường Cầu Giấy, phường\nQuan Hoa, Quận\nCầu Giấy,\nHà Nội","short_description":"Thẩm mỹ viện Xuân Thu","lat":21.033185,"lng":105.801339},{"name":"Phòng khám chuyên khoa răng hàm mặt bác sĩ Lê Ngọc Tuấn","address":"106A\/79, phường\nCầu Giấy, Quận\nCầu Giấy,\nHà Nội","short_description":"Phòng khám chuyên khoa răng hàm mặt bác sĩ Lê Ngọc Tuấn","lat":21.0303315,"lng":105.8010278},{"name":"Phòng khám Sản phụ khoa và Siêu Âm 4D Hà Nội","address":"61, Bờ Sông, Phường Quan Hoa, Quận Cầu Giấy, Hà Nội","short_description":"Phòng khám Sản phụ khoa và Siêu Âm 4D Hà Nội","lat":21.0314022,"lng":105.801875},{"name":"Nha khoa Minh Hải","address":"49 Dương Quảng Hàm , phường\nQuan Hoa, Quận\nCầu Giấy,\nHà Nội","short_description":"Nha khoa Minh Hải","lat":21.0345799,"lng":105.799608},{"name":"Phòng khám Nha khoa Quỳnh Anh","address":"43B\/79 Cầu Giấy, phường\nYên Hòa, Quận\nCầu Giấy,\nHà Nội","short_description":"Phòng khám Nha khoa Quỳnh Anh","lat":21.029203,"lng":105.799086},{"name":"Phòng khám chuyên khoa Tai - Mũi - Họng Nguyễn Trần Lâm","address":"42 Cầu Giấy, phường\nNgọc Khánh, Quận\nBa Đình,\nHà Nội","short_description":"Phòng khám chuyên khoa Tai - Mũi - Họng Nguyễn Trần Lâm","lat":21.0301699,"lng":105.8016081},{"name":"Nhà thuốc tư nhân","address":"467, Nguyễn Khang, Phường Yên Hòa, Quận Cầu Giấy, Hà Nội","short_description":"Nhà thuốc tư nhân","lat":21.0291222222,"lng":105.800012778},{"name":"Nhà thuốc Công Dưỡng","address":"28A ngõ 72, Dương Quảng Hàm, Quận Cầu Giấy, Hà Nội","short_description":"Nhà thuốc Công Dưỡng","lat":21.034943,"lng":105.8007017},{"name":"Trạm y tế phường Yên Hòa","address":"445, Nguyễn Khang, Phường Yên Hòa, Quận Cầu Giấy, Hà Nội","short_description":"Trạm y tế phường Yên Hòa","lat":21.0285974,"lng":105.7993753},{"name":"Nhà thuốc tư nhân Phúc Hiếu","address":"44 ngõ 79, Dương Quảng Hàm, Quận Cầu Giấy, Hà Nội","short_description":"Nhà thuốc tư nhân Phúc Hiếu","lat":21.035356,"lng":105.800365},{"name":"Nhà thuốc Nga Minh","address":"79, Dương Quảng Hàm, Quận Cầu Giấy, Hà Nội","short_description":"Nhà thuốc Nga Minh","lat":21.035356,"lng":105.800365},{"name":"Nha khoa Detec","address":"277 Bờ Sông Quan Hoa, phường\nQuan Hoa, Quận\nCầu Giấy,\nHà Nội","short_description":"Nha khoa Detec","lat":21.0324937,"lng":105.8029913},{"name":"Phòng khám Nhi khoa Bác sĩ Tú","address":"129 đường bờ sông Quan Hoa, phường\nQuan Hoa, Quận\nCầu Giấy,\nHà Nội","short_description":"Phòng khám Nhi khoa Bác sĩ Tú","lat":21.0324937,"lng":105.8029913},{"name":"Nhà thuốc tư nhân Anh Quang","address":"37, Cầu Giấy, Phường Ngọc Khánh, Quận Ba Đình, Hà Nội","short_description":"Nhà thuốc tư nhân Anh Quang","lat":21.0299877,"lng":105.802738},{"name":"Phòng khám đa khoa Y Cao","address":"262, Cầu Giấy, Quận Cầu Giấy, Hà Nội","short_description":"Phòng khám đa khoa Y Cao","lat":21.03443,"lng":105.79592},{"name":"Nhà thuốc tư nhân","address":"109, Dương Quảng Hàm, Quận Cầu Giấy, Hà Nội","short_description":"Nhà thuốc tư nhân","lat":21.035699,"lng":105.800712},{"name":"Nhà thuốc Minh Tâm","address":"1204, Đường Láng, Phường Láng Thượng, Quận Đống Đa, Hà Nội","short_description":"Nhà thuốc Minh Tâm","lat":21.0279343,"lng":105.7999719},{"name":"Nhà thuốc Ánh Dương","address":"Số 5 KĐT mới Yên Hòa, Nguyễn Khang, Quận Cầu Giấy, Hà Nội","short_description":"Nhà thuốc Ánh Dương","lat":21.0277885,"lng":105.7988617},{"name":"Nha khoa Linh Hoạt","address":"1 ngõ 37, Dịch Vọng, Quận Cầu Giấy, Hà Nội","short_description":"Nha khoa Linh Hoạt","lat":21.0312075,"lng":105.7947694},{"name":"Phòng khám tư nhân chuyên khoa nội","address":"15 ngõ 37, Dịch Vọng, Quận Cầu Giấy, Hà Nội","short_description":"Phòng khám tư nhân chuyên khoa nội","lat":21.0312075,"lng":105.7947694},{"name":"Nhà thuốc Quỳnh Trang","address":"151, Dương Quảng Hàm, Quận Cầu Giấy, Hà Nội","short_description":"Quỳnh Trang","lat":21.0359694,"lng":105.8009947},{"name":"Nhà thuốc Ngọc Hà","address":"90 ngõ 68, Cầu Giấy, Quận Cầu Giấy, Hà Nội","short_description":"Nhà thuốc Ngọc Hà","lat":21.0345175,"lng":105.8031582},{"name":"Nhà thuốc Minh Ngọc","address":"79 ngõ 68, Cầu Giấy, Quận Cầu Giấy, Hà Nội","short_description":"Nhà thuốc Minh Ngọc","lat":21.0345175,"lng":105.8031582},{"name":"Nhà thuốc tư nhân","address":"53 ngõ 68, Cầu Giấy, Quận Cầu Giấy, Hà Nội","short_description":"Nhà thuốc tư nhân","lat":21.0345175,"lng":105.8031582},{"name":"Nha Khoa Vương Thành số 6","address":"6 Chùa Hà, phường\nQuan Hoa, Quận\nCầu Giấy,\nHà Nội","short_description":"Nha Khoa Vương Thành số 6","lat":21.0347758,"lng":105.7952027},{"name":"Bệnh viện quốc tế Hoa Kỳ Hà Nội","address":"1 Chùa Hà, Phường Dịch Vọng, Quận Cầu Giấy, Hà Nội","short_description":"Bệnh viện quốc tế Hoa Kỳ Hà Nội","lat":21.034753,"lng":105.7951526},{"name":"Nhà thuốc Tùng Linh","address":"4, Chùa Hà, Quận Cầu Giấy, Hà Nội","short_description":"Nhà thuốc Tùng Linh","lat":21.0347743,"lng":105.7951623},{"name":"Phòng khám sản phụ khoa Hà Nội","address":"61 Quan Hoa, phường\nQuan Hoa, Quận\nCầu Giấy,\nHà Nội","short_description":"Phòng khám sản phụ khoa Hà Nội","lat":21.034047,"lng":105.8039638},{"name":"Phòng khám đa khoa nhi Cao","address":"99, Quan Hoa, Quận Cầu Giấy, Hà Nội","short_description":"Phòng khám đa khoa nhi Cao","lat":21.0339848,"lng":105.8040833},{"name":"Phòng khám phụ sản Tâm An","address":"79, Quan Hoa, Quận Cầu Giấy, Hà Nội","short_description":"Phòng khám phụ sản Tâm An","lat":21.0339848,"lng":105.8040833},{"name":"Phòng khám chuyên khoa Nhi - Tai Mũi Họng Huyền Trang","address":"86C Ngõ 381 Nguyễn Khang, phường\nYên Hòa, Quận\nCầu Giấy,\nHà Nội","short_description":"Phòng khám chuyên khoa Nhi - Tai Mũi Họng Huyền Trang","lat":21.0275188,"lng":105.7966307},{"name":"Phòng chẩn trị y học cổ truyền Vượng Phát","address":"1172, Đường Láng, Phường Láng Thượng, Quận Đống Đa, Hà Nội","short_description":"Phòng chẩn trị y học cổ truyền Vượng Phát","lat":21.0268914,"lng":105.7992204},{"name":"Nhà thuốc Hoàng Gia","address":"30 ngõ 381, Nguyễn Khang, Quận Cầu Giấy, Hà Nội","short_description":"Nhà thuốc Hoàng Gia","lat":21.0272195,"lng":105.7972687},{"name":"Nhà thuốc tư nhân","address":"29 ngõ 381, Nguyễn Khang, Quận Cầu Giấy, Hà Nội","short_description":"Nhà thuốc tư nhân","lat":21.0272111,"lng":105.7972875},{"name":"Nha khoa Hưng Phong","address":"1 khu tập thể TCT Dược Tổ 51, phường\nQuan Hoa, Quận\nCầu Giấy,\nHà Nội","short_description":"Nha khoa Hưng Phong","lat":21.0367702,"lng":105.8011445},{"name":"Phòng khám chuyên khoa Răng Hàm Mặt Thanh Lịch","address":"101 đường Bờ sông Tô Lịch tổ 3, phường\nQuan Hoa, Quận\nCầu Giấy,\nHà Nội","short_description":"Phòng khám chuyên khoa Răng Hàm Mặt Thanh Lịch","lat":21.0367702,"lng":105.8011445},{"name":"Phòng Khám Nha Khoa Thúy Nga","address":"101 Đường Bờ Sông, phường\nQuan Hoa, Quận\nCầu Giấy,\nHà Nội","short_description":"Phòng Khám Nha Khoa Thúy Nga","lat":21.0367702,"lng":105.8011445},{"name":"Nhà thuốc tư nhân","address":"17 ngõ 381, Nguyễn Khang, Quận Cầu Giấy, Hà Nội","short_description":"Nhà thuốc tư nhân","lat":21.027505,"lng":105.796584},{"name":"Phòng y học cổ truyền Đông Y Bình Minh","address":"8A ngõ 16, Dịch Vọng Hậu, Quận Cầu Giấy, Hà Nội","short_description":"Phòng y học cổ truyền Đông Y Bình Minh","lat":21.0273598,"lng":105.7968855},{"name":"Nhà thuốc Hoàng Hải","address":"A9 ngõ 136, Yên Hòa, Quận Cầu Giấy, Hà Nội","short_description":"Nhà thuốc Hoàng Hải","lat":21.0282083,"lng":105.7953934},{"name":"Nhà thuốc nhân dân","address":"45 ngõ 1, Dịch Vọng Hậu, Quận Cầu Giấy, Hà Nội","short_description":"Nhà thuốc nhân dân","lat":21.02682,"lng":105.797904},{"name":"Nhà thuốc Huyền Trang","address":"9 ngõ 143, Quan Hoa, Quận Cầu Giấy, Hà Nội","short_description":"Nhà thuốc Huyền Trang","lat":21.0347984,"lng":105.8040563},{"name":"Phòng khám chuyên khoa Nội Bác sĩ Bùi Cao Sơn","address":"19 Hẻm 462\/35\/1 Bưởi, phường\nVĩnh Phúc, Quận\nBa Đình,\nHà Nội","short_description":"Phòng khám chuyên khoa Nội Bác sĩ Bùi Cao Sơn","lat":21.032857,"lng":105.804868},{"name":"Trạm y tế phường Dịch Vọng","address":"38, Dịch Vọng, Quận Cầu Giấy, Hà Nội","short_description":"Trạm y tế phường Dịch Vọng","lat":21.033206,"lng":105.793635},{"name":"Nhà thuốc 52B Dịch Vọng","address":"52B, Dịch Vọng, Quận Cầu Giấy, Hà Nội","short_description":"Nhà thuốc 52B Dịch Vọng","lat":21.032876,"lng":105.793483}]
